[
    { "id": "1", "name": "Happy Tails Vet Clinic", "location": "Delhi", "phone": "+911234567890" },
    { "id": "2", "name": "Pet Life Hospital", "location": "Noida", "phone": "+911112223334" },
    { "id": "3", "name": "Paws & Care Vet Centre", "location": "Gurgaon", "phone": "+919876543210" },
    { "id": "4", "name": "Healing Paws Clinic", "location": "Mumbai", "phone": "+912345678901" },
    { "id": "5", "name": "Companion Animal Care", "location": "Pune", "phone": "+912233445566" },
    { "id": "6", "name": "The Pet Wellness Center", "location": "Bangalore", "phone": "+918888777666" },
    { "id": "7", "name": "Vet Zone", "location": "Chennai", "phone": "+914445556677" },
    { "id": "8", "name": "Fur Ever Healthy", "location": "Hyderabad", "phone": "+919999888777" },
    { "id": "9", "name": "Whiskers & Paws Clinic", "location": "Jaipur", "phone": "+911223344556" },
    { "id": "10", "name": "VetCare Hospital", "location": "Kolkata", "phone": "+913334445566" },
    { "id": "11", "name": "Animal Aid Clinic", "location": "Ahmedabad", "phone": "+917878787878" },
    { "id": "12", "name": "Paw Prints Veterinary", "location": "Lucknow", "phone": "+915555666777" },
    { "id": "13", "name": "Tail Waggers Hospital", "location": "Nagpur", "phone": "+917001002003" },
    { "id": "14", "name": "Caring Creatures Clinic", "location": "Bhopal", "phone": "+917812345678" },
    { "id": "15", "name": "Happy Pet Clinic", "location": "Surat", "phone": "+912612345678" },
    { "id": "16", "name": "Furry Friends Vet", "location": "Chandigarh", "phone": "+911722345678" },
    { "id": "17", "name": "The Pet Doctor", "location": "Patna", "phone": "+916122345678" },
    { "id": "18", "name": "Vet First", "location": "Indore", "phone": "+917312345678" },
    { "id": "19", "name": "Animal Wellness Center", "location": "Kanpur", "phone": "+915122345678" },
    { "id": "20", "name": "Pet Pulse Hospital", "location": "Ludhiana", "phone": "+911612345678" },
    { "id": "21", "name": "Love Your Pet Clinic", "location": "Varanasi", "phone": "+915422345678" },
    { "id": "22", "name": "The Kind Paw Clinic", "location": "Agra", "phone": "+915622345678" },
    { "id": "23", "name": "Pet Shield Hospital", "location": "Raipur", "phone": "+917712345678" },
    { "id": "24", "name": "My Petâ€™s Doctor", "location": "Ranchi", "phone": "+916512345678" },
    { "id": "25", "name": "Healing Pawsteps", "location": "Guwahati", "phone": "+913612345678" },
    { "id": "26", "name": "Vet Aid Plus", "location": "Dehradun", "phone": "+911352345678" },
    { "id": "27", "name": "Animal Haven Vet", "location": "Amritsar", "phone": "+911832345678" },
    { "id": "28", "name": "PetVitals Clinic", "location": "Nashik", "phone": "+912532345678" },
    { "id": "29", "name": "Pawsitive Care Center", "location": "Jodhpur", "phone": "+912912345678" },
    { "id": "30", "name": "Care4Paws Vet", "location": "Vijayawada", "phone": "+918662345678" },
    { "id": "31", "name": "Pet Kind Clinic", "location": "Thiruvananthapuram", "phone": "+914712345678" },
    { "id": "32", "name": "Pet Healers", "location": "Kozhikode", "phone": "+914952345678" },
    { "id": "33", "name": "Wagging Tail Vet Center", "location": "Mangalore", "phone": "+918242345678" },
    { "id": "34", "name": "The Vet Crew", "location": "Coimbatore", "phone": "+914222345678" },
    { "id": "35", "name": "KindHeart Vet Clinic", "location": "Madurai", "phone": "+914522345678" },
    { "id": "36", "name": "TruePet Clinic", "location": "Bareilly", "phone": "+915822345678" },
    { "id": "37", "name": "Elite Pet Care", "location": "Udaipur", "phone": "+912942345678" },
    { "id": "38", "name": "Pawfect Care", "location": "Meerut", "phone": "+915122345679" },
    { "id": "39", "name": "Vet House", "location": "Jabalpur", "phone": "+917612345678" },
    { "id": "40", "name": "Petsure Vet Clinic", "location": "Gaya", "phone": "+916312345678" },
    { "id": "41", "name": "Pet360 Hospital", "location": "Panipat", "phone": "+911802345678" },
    { "id": "42", "name": "Paw Rescue Clinic", "location": "Bilaspur", "phone": "+917752345678" },
    { "id": "43", "name": "LoveVet Center", "location": "Jhansi", "phone": "+915102345678" },
    { "id": "44", "name": "VetLife India", "location": "Siliguri", "phone": "+913532345678" },
    { "id": "45", "name": "Paw Point Hospital", "location": "Kochi", "phone": "+914842345678" },
    { "id": "46", "name": "PetWings Vet Clinic", "location": "Allahabad", "phone": "+915322345678" },
    { "id": "47", "name": "Animal Trust Clinic", "location": "Bhilai", "phone": "+917782345678" },
    { "id": "48", "name": "VetNurture", "location": "Dhanbad", "phone": "+916222345678" },
    { "id": "49", "name": "Care Companion Clinic", "location": "Ajmer", "phone": "+911452345678" },
    { "id": "50", "name": "PetCure Hospital", "location": "Tiruchirappalli", "phone": "+914312345678" }
  ]
  